[
  {
    "city": "Berlin",
    "country": "Germany",
    "lon": 13.4050,
    "lat": 52.5200
  },
  {
    "city": "Tokyo",
    "country": "Japan", 
    "lon": 139.6503,
    "lat": 35.6762
  },
  {
    "city": "Cairo",
    "country": "Egypt",
    "lon": 31.2357,
    "lat": 30.0444
  },
  {
    "city": "San Francisco",
    "country": "USA",
    "lon": -122.4194,
    "lat": 37.7749
  },
  {
    "city": "Cape Town",
    "country": "South Africa",
    "lon": 18.4241,
    "lat": -33.9249
  }
]